[{
  "id": 141641,
  "city": "Seattle",
  "address1": "2600 SW Thistle St",
  "region": "WA",
  "postal": "98106",
  "title": "Knock Doors for Bernie in South Delridge, Seattle!",
  "attendee_count": 6,
  "type": "Canvass_M",
  "link": "https://events.berniesanders.com/event/242814/",
  "date": "2020-03-08",
  "day": "Sun Mar 08",
  "time": "12:00 pm",
  "Latitude": 47.5299,
  "Longitude": -122.3659
}, {
  "id": 155485,
  "city": "Seattle",
  "address1": "738 S Sullivan St",
  "region": "WA",
  "postal": "98108",
  "title": "Knock Doors with a Bernie Victory Captain in Seattle, WA!",
  "attendee_count": 0,
  "type": "Canvass_M",
  "link": "https://www.mobilize.us/sanderswa/event/255276/",
  "date": "2020-03-10",
  "day": "Tue Mar 10",
  "time": "09:00 am",
  "Latitude": 47.5281,
  "Longitude": -122.3241
}, {
  "id": 155488,
  "city": "Seattle",
  "address1": "738 S Sullivan St",
  "region": "WA",
  "postal": "98108",
  "title": "Knock Doors with a Bernie Victory Captain in Seattle, WA!",
  "attendee_count": 0,
  "type": "Canvass_M",
  "link": "https://events.berniesanders.com/event/255276/",
  "date": "2020-03-10",
  "day": "Tue Mar 10",
  "time": "12:00 pm",
  "Latitude": 47.5279,
  "Longitude": -122.3243
}, {
  "id": 155495,
  "city": "Seattle",
  "address1": "738 S Sullivan St",
  "region": "WA",
  "postal": "98108",
  "title": "Knock Doors with a Bernie Victory Captain in Seattle, WA!",
  "attendee_count": 0,
  "type": "Canvass_M",
  "link": "https://events.berniesanders.com/event/255276/",
  "date": "2020-03-10",
  "day": "Tue Mar 10",
  "time": "03:00 pm",
  "Latitude": 47.5279,
  "Longitude": -122.324
}, {
  "id": 158170,
  "city": "Seattle",
  "address1": "2820 S Myrtle St",
  "region": "WA",
  "postal": "98108",
  "title": "Knock Doors with a Bernie Victory Captain in Beacon Hill, Seattle!",
  "attendee_count": 5,
  "type": "Canvass_M",
  "link": "https://www.mobilize.us/sanderswa/event/256790/",
  "date": "2020-03-08",
  "day": "Sun Mar 08",
  "time": "02:00 pm",
  "Latitude": 47.5397,
  "Longitude": -122.2952
}, {
  "id": 158171,
  "city": "Seattle",
  "address1": "2820 S Myrtle St",
  "region": "WA",
  "postal": "98108",
  "title": "Knock Doors with a Bernie Victory Captain in Beacon Hill, Seattle!",
  "attendee_count": 3,
  "type": "Canvass_M",
  "link": "https://www.mobilize.us/sanderswa/event/256790/",
  "date": "2020-03-08",
  "day": "Sun Mar 08",
  "time": "11:00 am",
  "Latitude": 47.5396,
  "Longitude": -122.2955
}, {
  "id": 159038,
  "city": "Seattle",
  "address1": "2820 S Myrtle St",
  "region": "WA",
  "postal": "98108",
  "title": "Knock Doors with a Bernie Victory Captain in Beacon Hill, Seattle!",
  "attendee_count": 1,
  "type": "Canvass_M",
  "link": "https://events.berniesanders.com/event/256790/",
  "date": "2020-03-08",
  "day": "Sun Mar 08",
  "time": "05:00 pm",
  "Latitude": 47.5395,
  "Longitude": -122.2951
}, {
  "id": 158499,
  "city": "Issaquah",
  "address1": "909 NE Ellis Drive",
  "region": "WA",
  "postal": "98029",
  "title": "Knock Doors with a Bernie Victory Captain in Issaquah, WA!",
  "attendee_count": 3,
  "max_attendees": 30,
  "type": "Canvass_M",
  "link": "https://events.berniesanders.com/event/246920/",
  "date": "2020-03-07",
  "day": "Sat Mar 07",
  "time": "03:00 pm",
  "Latitude": 47.5408,
  "Longitude": -122.0196
}, {
  "id": 158500,
  "city": "Issaquah",
  "address1": "909 NE Ellis Drive",
  "region": "WA",
  "postal": "98029",
  "title": "Knock Doors with a Bernie Victory Captain in Issaquah, WA!",
  "attendee_count": 0,
  "max_attendees": 30,
  "type": "Canvass_M",
  "link": "https://events.berniesanders.com/event/247599/",
  "date": "2020-03-08",
  "day": "Sun Mar 08",
  "time": "03:00 pm",
  "Latitude": 47.5409,
  "Longitude": -122.0195
}, {
  "id": 155589,
  "city": "Seattle",
  "address1": "6920 34th Ave SW",
  "region": "WA",
  "postal": "98126",
  "title": "Knock Doors with a Bernie Victory Captain in West Seattle!",
  "attendee_count": 0,
  "type": "Canvass_M",
  "link": "https://www.mobilize.us/sanderswa/event/255365/",
  "date": "2020-03-08",
  "day": "Sun Mar 08",
  "time": "04:00 pm",
  "Latitude": 47.5408,
  "Longitude": -122.3749
}, {
  "id": 155590,
  "city": "Seattle",
  "address1": "6920 34th Ave SW",
  "region": "WA",
  "postal": "98126",
  "title": "Knock Doors with a Bernie Victory Captain in West Seattle!",
  "attendee_count": 1,
  "type": "Canvass_M",
  "link": "https://events.berniesanders.com/event/255365/",
  "date": "2020-03-08",
  "day": "Sun Mar 08",
  "time": "10:00 am",
  "Latitude": 47.5403,
  "Longitude": -122.3744
}, {
  "id": 155591,
  "city": "Seattle",
  "address1": "6920 34th Ave SW",
  "region": "WA",
  "postal": "98126",
  "title": "Knock Doors with a Bernie Victory Captain in West Seattle!",
  "attendee_count": 0,
  "type": "Canvass_M",
  "link": "https://www.mobilize.us/sanderswa/event/255365/",
  "date": "2020-03-08",
  "day": "Sun Mar 08",
  "time": "01:00 pm",
  "Latitude": 47.5403,
  "Longitude": -122.3749
}, {
  "id": 155592,
  "city": "Seattle",
  "address1": "6920 34th Ave SW",
  "region": "WA",
  "postal": "98126",
  "title": "Knock Doors with a Bernie Victory Captain in West Seattle!",
  "attendee_count": 0,
  "type": "Canvass_M",
  "link": "https://www.mobilize.us/sanderswa/event/255367/",
  "date": "2020-03-09",
  "day": "Mon Mar 09",
  "time": "04:00 pm",
  "Latitude": 47.5404,
  "Longitude": -122.3748
}, {
  "id": 155593,
  "city": "Seattle",
  "address1": "6920 34th Ave SW",
  "region": "WA",
  "postal": "98126",
  "title": "Knock Doors with a Bernie Victory Captain in West Seattle!",
  "attendee_count": 3,
  "type": "Canvass_M",
  "link": "https://www.mobilize.us/sanderswa/event/255373/",
  "date": "2020-03-06",
  "day": "Fri Mar 06",
  "time": "04:00 pm",
  "Latitude": 47.5406,
  "Longitude": -122.3748
}, {
  "id": 155594,
  "city": "Seattle",
  "address1": "6920 34th Ave SW",
  "region": "WA",
  "postal": "98126",
  "title": "Knock Doors with a Bernie Victory Captain in West Seattle!",
  "attendee_count": 2,
  "type": "Canvass_M",
  "link": "https://events.berniesanders.com/event/255374/",
  "date": "2020-03-05",
  "day": "Thu Mar 05",
  "time": "04:00 pm",
  "Latitude": 47.5407,
  "Longitude": -122.3747
}, {
  "id": 160457,
  "city": "Seattle",
  "address1": "Address provided upon RSVP",
  "region": "WA",
  "postal": "98118",
  "title": "Knock Doors with a Bernie Victory Captain in Columbia City, WA!",
  "attendee_count": 0,
  "max_attendees": 40,
  "type": "Canvass_M",
  "link": "https://www.mobilize.us/sanderswa/event/258397/",
  "date": "2020-03-07",
  "day": "Sat Mar 07",
  "time": "10:00 am",
  "Latitude": 47.5638,
  "Longitude": -122.3373
}, {
  "id": 158904,
  "city": "Seattle",
  "address1": "6630 Rainier Ave S #3350",
  "region": "WA",
  "postal": "98118",
  "title": "Knock Doors for Bernie in SE Seattle",
  "attendee_count": 0,
  "type": "Canvass_M",
  "link": "https://events.berniesanders.com/event/257211/",
  "date": "2020-03-08",
  "day": "Sun Mar 08",
  "time": "12:00 pm",
  "Latitude": 47.5425,
  "Longitude": -122.2724
}, {
  "id": 128775,
  "city": "Bellevue",
  "address1": "6558 125th Ave SE",
  "region": "WA",
  "postal": "98006",
  "title": "Knock Doors with a Bernie Victory Captain in Bellevue WA!",
  "attendee_count": 3,
  "type": "Canvass_M",
  "link": "https://www.mobilize.us/sanderswa/event/230830/",
  "date": "2020-03-07",
  "day": "Sat Mar 07",
  "time": "11:00 am",
  "Latitude": 47.543,
  "Longitude": -122.1738
}, {
  "id": 128776,
  "city": "Bellevue",
  "address1": "6558 125th Ave SE",
  "region": "WA",
  "postal": "98006",
  "title": "Knock Doors with a Bernie Victory Captain in Bellevue, WA!",
  "attendee_count": 2,
  "type": "Canvass_M",
  "link": "https://www.mobilize.us/sanderswa/event/230817/",
  "date": "2020-03-08",
  "day": "Sun Mar 08",
  "time": "11:00 am",
  "Latitude": 47.5427,
  "Longitude": -122.1739
}, {
  "id": 150680,
  "city": "Seattle",
  "address1": "2850 SW Roxbury St",
  "region": "WA",
  "postal": "98126",
  "title": "Knock Doors with a Bernie Victory Captain in West Seattle!",
  "attendee_count": 1,
  "type": "Canvass_M",
  "link": "https://www.mobilize.us/sanderswa/event/250328/",
  "date": "2020-03-07",
  "day": "Sat Mar 07",
  "time": "10:00 am",
  "Latitude": 47.5177,
  "Longitude": -122.3692
}, {
  "id": 150686,
  "city": "Seattle",
  "address1": "2850 SW Roxbury St",
  "region": "WA",
  "postal": "98126",
  "title": "Knock Doors with a Bernie Victory Captain in West Seattle!",
  "attendee_count": 0,
  "type": "Canvass_M",
  "link": "https://events.berniesanders.com/event/250328/",
  "date": "2020-03-07",
  "day": "Sat Mar 07",
  "time": "04:00 pm",
  "Latitude": 47.5176,
  "Longitude": -122.3689
}, {
  "id": 150689,
  "city": "Seattle",
  "address1": "2850 SW Roxbury St",
  "region": "WA",
  "postal": "98126",
  "title": "Knock Doors with a Bernie Victory Captain in West Seattle!",
  "attendee_count": 3,
  "type": "Canvass_M",
  "link": "https://events.berniesanders.com/event/250328/",
  "date": "2020-03-07",
  "day": "Sat Mar 07",
  "time": "01:00 pm",
  "Latitude": 47.5175,
  "Longitude": -122.3695
}, {
  "id": 159920,
  "city": "Seattle",
  "address1": "4212 S Orcas St",
  "region": "WA",
  "postal": "98118",
  "title": "Knock Doors with a Bernie Victory Captain in Seattle, WA",
  "attendee_count": 1,
  "type": "Canvass_M",
  "link": "https://www.mobilize.us/sanderswa/event/258203/",
  "date": "2020-03-07",
  "day": "Sat Mar 07",
  "time": "02:00 pm",
  "Latitude": 47.5514,
  "Longitude": -122.2804
}, {
  "id": 145993,
  "city": "Issaquah",
  "address1": "909 NE Ellis Drive",
  "region": "WA",
  "postal": "98029",
  "title": "Knock Doors with a Bernie Victory Captain in Issaquah, WA!",
  "attendee_count": 11,
  "max_attendees": 30,
  "type": "Canvass_M",
  "link": "https://www.mobilize.us/sanderswa/event/246920/",
  "date": "2020-03-07",
  "day": "Sat Mar 07",
  "time": "12:00 pm",
  "Latitude": 47.5406,
  "Longitude": -122.0197
}, {
  "id": 146006,
  "city": "Issaquah",
  "address1": "909 NE Ellis Drive",
  "region": "WA",
  "postal": "98029",
  "title": "Knock Doors with a Bernie Victory Captain in Issaquah, WA!",
  "attendee_count": 13,
  "max_attendees": 30,
  "type": "Canvass_M",
  "link": "https://events.berniesanders.com/event/246920/",
  "date": "2020-03-07",
  "day": "Sat Mar 07",
  "time": "09:00 am",
  "Latitude": 47.5405,
  "Longitude": -122.0194
}, {
  "id": 147813,
  "city": "Issaquah",
  "address1": "909 NE Ellis Drive",
  "region": "WA",
  "postal": "98029",
  "title": "Knock Doors with a Bernie Victory Captain in Issaquah, WA!",
  "attendee_count": 9,
  "max_attendees": 30,
  "type": "Canvass_M",
  "link": "https://www.mobilize.us/sanderswa/event/247599/",
  "date": "2020-03-08",
  "day": "Sun Mar 08",
  "time": "09:00 am",
  "Latitude": 47.5407,
  "Longitude": -122.0192
}, {
  "id": 147814,
  "city": "Issaquah",
  "address1": "909 NE Ellis Drive",
  "region": "WA",
  "postal": "98029",
  "title": "Knock Doors with a Bernie Victory Captain in Issaquah, WA!",
  "attendee_count": 5,
  "max_attendees": 30,
  "type": "Canvass_M",
  "link": "https://events.berniesanders.com/event/247599/",
  "date": "2020-03-08",
  "day": "Sun Mar 08",
  "time": "12:00 pm",
  "Latitude": 47.5406,
  "Longitude": -122.0195
}, {
  "id": 149238,
  "city": "Seattle",
  "address1": "2931 Rainier Ave S",
  "region": "WA",
  "postal": "98144",
  "title": "Knock Doors for Bernie in Mt. Baker, Seattle, WA",
  "attendee_count": 7,
  "type": "Canvass_M",
  "link": "https://events.berniesanders.com/event/248328/",
  "date": "2020-03-07",
  "day": "Sat Mar 07",
  "time": "01:00 pm",
  "Latitude": 47.5767,
  "Longitude": -122.2972
}, {
  "id": 120560,
  "city": "Seattle",
  "address1": "2821 Beacon Ave S 5813",
  "region": "WA",
  "postal": "98144",
  "title": "Knock Doors with a Bernie Victory Captain in Seattle",
  "attendee_count": 25,
  "max_attendees": 100,
  "type": "Canvass_M",
  "link": "https://www.mobilize.us/sanderswa/event/218055/",
  "date": "2020-03-08",
  "day": "Sun Mar 08",
  "time": "12:00 pm",
  "Latitude": 47.5781,
  "Longitude": -122.3114
}, {
  "id": 155580,
  "city": "Mercer Island",
  "address1": "7695 SE 27th St",
  "region": "WA",
  "postal": "98040",
  "title": "Knock Doors with a Bernie Victory Captain in Mercer Island, WA!",
  "attendee_count": 0,
  "type": "Canvass_M",
  "link": "https://www.mobilize.us/sanderswa/event/255089/",
  "date": "2020-03-07",
  "day": "Sat Mar 07",
  "time": "12:00 pm",
  "Latitude": 47.5865,
  "Longitude": -122.2356
}, {
  "id": 153420,
  "city": "Seattle",
  "address1": "1902 13th Ave S",
  "region": "WA",
  "postal": "98144",
  "title": "Knock Doors for Bernie in Beacon Hill Seattle, WA!",
  "attendee_count": 0,
  "type": "Canvass_M",
  "link": "https://www.mobilize.us/sanderswa/event/252883/",
  "date": "2020-03-07",
  "day": "Sat Mar 07",
  "time": "04:00 pm",
  "Latitude": 47.5862,
  "Longitude": -122.3157
}, {
  "id": 153421,
  "city": "Seattle",
  "address1": "1902 13th Ave S",
  "region": "WA",
  "postal": "98144",
  "title": "Knock Doors for Bernie in Beacon Hill Seattle, WA!",
  "attendee_count": 0,
  "type": "Canvass_M",
  "link": "https://www.mobilize.us/sanderswa/event/252883/",
  "date": "2020-03-07",
  "day": "Sat Mar 07",
  "time": "02:00 pm",
  "Latitude": 47.5862,
  "Longitude": -122.3156
}, {
  "id": 153430,
  "city": "Seattle",
  "address1": "1902 13th Ave S",
  "region": "WA",
  "postal": "98144",
  "title": "Knock Doors for Bernie in Beacon Hill Seattle, WA!",
  "attendee_count": 2,
  "type": "Canvass_M",
  "link": "https://www.mobilize.us/sanderswa/event/252883/",
  "date": "2020-03-07",
  "day": "Sat Mar 07",
  "time": "12:00 pm",
  "Latitude": 47.5864,
  "Longitude": -122.3153
}, {
  "id": 153438,
  "city": "Seattle",
  "address1": "1902 13th Ave S",
  "region": "WA",
  "postal": "98144",
  "title": "Knock Doors for Bernie in Beacon Hill Seattle, WA!",
  "attendee_count": 3,
  "type": "Canvass_M",
  "link": "https://www.mobilize.us/sanderswa/event/252883/",
  "date": "2020-03-07",
  "day": "Sat Mar 07",
  "time": "09:30 am",
  "Latitude": 47.5861,
  "Longitude": -122.3156
}, {
  "id": 155160,
  "city": "Seattle",
  "address1": "1902 13th Ave S",
  "region": "WA",
  "postal": "98144",
  "title": "Knock Doors with a Bernie Victory Captain in Beacon Hill, Seattle!",
  "attendee_count": 1,
  "max_attendees": 100,
  "type": "Canvass_M",
  "link": "https://www.mobilize.us/sanderswa/event/254997/",
  "date": "2020-03-07",
  "day": "Sat Mar 07",
  "time": "12:00 pm",
  "Latitude": 47.586,
  "Longitude": -122.3153
}, {
  "id": 155161,
  "city": "Seattle",
  "address1": "1902 13th Ave S",
  "region": "WA",
  "postal": "98144",
  "title": "Knock Doors with a Bernie Victory Captain in Beacon Hill, Seattle!",
  "attendee_count": 0,
  "max_attendees": 100,
  "type": "Canvass_M",
  "link": "https://www.mobilize.us/sanderswa/event/254997/",
  "date": "2020-03-07",
  "day": "Sat Mar 07",
  "time": "09:00 am",
  "Latitude": 47.5864,
  "Longitude": -122.3155
}, {
  "id": 155162,
  "city": "Seattle",
  "address1": "1902 13th Ave S",
  "region": "WA",
  "postal": "98144",
  "title": "Knock Doors with a Bernie Victory Captain in Beacon Hill, Seattle!",
  "attendee_count": 0,
  "max_attendees": 100,
  "type": "Canvass_M",
  "link": "https://events.berniesanders.com/event/254997/",
  "date": "2020-03-07",
  "day": "Sat Mar 07",
  "time": "03:00 pm",
  "Latitude": 47.5861,
  "Longitude": -122.3155
}, {
  "id": 155163,
  "city": "Seattle",
  "address1": "1902 13th Ave S",
  "region": "WA",
  "postal": "98144",
  "title": "Knock Doors with a Bernie Victory Captain in Beacon Hill, Seattle!",
  "attendee_count": 0,
  "max_attendees": 100,
  "type": "Canvass_M",
  "link": "https://events.berniesanders.com/event/254997/",
  "date": "2020-03-07",
  "day": "Sat Mar 07",
  "time": "06:00 pm",
  "Latitude": 47.5859,
  "Longitude": -122.3157
}, {
  "id": 158439,
  "city": "Seattle",
  "address1": "2919 Beacon Ave S",
  "region": "WA",
  "postal": "98144",
  "title": "Get Out the Vote for Bernie in Beacon Hill, Seattle",
  "attendee_count": 0,
  "type": "Canvass_M",
  "link": "https://www.mobilize.us/sanderswa/event/257050/",
  "date": "2020-03-07",
  "day": "Sat Mar 07",
  "time": "10:00 am",
  "Latitude": 47.5772,
  "Longitude": -122.3104
}, {
  "id": 158454,
  "city": "Seattle",
  "address1": "2919 Beacon Ave S",
  "region": "WA",
  "postal": "98144",
  "title": "Get Out the Vote for Bernie in Beacon Hill, Seattle",
  "attendee_count": 1,
  "type": "Canvass_M",
  "link": "https://events.berniesanders.com/event/257050/",
  "date": "2020-03-07",
  "day": "Sat Mar 07",
  "time": "01:00 pm",
  "Latitude": 47.577,
  "Longitude": -122.3109
}, {
  "id": 156542,
  "city": "Bellevue",
  "address1": "1659 104th Ave SE",
  "region": "WA",
  "postal": "98004",
  "title": "Get Out the Vote Canvass with a Bernie Victory Team in Bellevue WA!",
  "attendee_count": 11,
  "max_attendees": 11,
  "type": "Canvass_M",
  "link": "https://www.mobilize.us/sanderswa/event/256098/",
  "date": "2020-03-07",
  "day": "Sat Mar 07",
  "time": "12:30 pm",
  "Latitude": 47.5947,
  "Longitude": -122.2025
}, {
  "id": 156540,
  "city": "Bellevue",
  "address1": "1659 104th Ave SE",
  "region": "WA",
  "postal": "98004",
  "title": "Get Out the Vote Canvass with a Bernie Victory Team in Bellevue WA!",
  "attendee_count": 11,
  "max_attendees": 11,
  "type": "Canvass_M",
  "link": "https://www.mobilize.us/sanderswa/event/256098/",
  "date": "2020-03-07",
  "day": "Sat Mar 07",
  "time": "09:30 am",
  "Latitude": 47.5947,
  "Longitude": -122.2024
}, {
  "id": 156541,
  "city": "Bellevue",
  "address1": "1659 104th Ave SE",
  "region": "WA",
  "postal": "98004",
  "title": "Get Out the Vote Canvass with a Bernie Victory Team in Bellevue WA!",
  "attendee_count": 8,
  "max_attendees": 10,
  "type": "Canvass_M",
  "link": "https://www.mobilize.us/sanderswa/event/256098/",
  "date": "2020-03-07",
  "day": "Sat Mar 07",
  "time": "03:00 pm",
  "Latitude": 47.5946,
  "Longitude": -122.2024
}, {
  "id": 130622,
  "city": "Seattle",
  "address1": "1404 E Yesler Way",
  "region": "WA",
  "postal": "98122",
  "title": "Weekend of Action for Bernie in Seattle!",
  "attendee_count": 9,
  "type": "Canvass_M",
  "link": "https://www.mobilize.us/sanderswa/event/233050/",
  "date": "2020-03-08",
  "day": "Sun Mar 08",
  "time": "09:00 am",
  "Latitude": 47.6018,
  "Longitude": -122.314
}, {
  "id": 130629,
  "city": "Seattle",
  "address1": "1404 E Yesler Way",
  "region": "WA",
  "postal": "98122",
  "title": "Weekend of Action for Bernie in Seattle!",
  "attendee_count": 14,
  "type": "Canvass_M",
  "link": "https://events.berniesanders.com/event/233050/",
  "date": "2020-03-07",
  "day": "Sat Mar 07",
  "time": "03:00 pm",
  "Latitude": 47.6018,
  "Longitude": -122.3138
}, {
  "id": 130630,
  "city": "Seattle",
  "address1": "1404 E Yesler Way",
  "region": "WA",
  "postal": "98122",
  "title": "Weekend of Action for Bernie in Seattle!",
  "attendee_count": 5,
  "type": "Canvass_M",
  "link": "https://events.berniesanders.com/event/233050/",
  "date": "2020-03-08",
  "day": "Sun Mar 08",
  "time": "06:00 pm",
  "Latitude": 47.6018,
  "Longitude": -122.3137
}, {
  "id": 130631,
  "city": "Seattle",
  "address1": "1404 E Yesler Way",
  "region": "WA",
  "postal": "98122",
  "title": "Weekend of Action for Bernie in Seattle!",
  "attendee_count": 15,
  "type": "Canvass_M",
  "link": "https://www.mobilize.us/sanderswa/event/233050/",
  "date": "2020-03-07",
  "day": "Sat Mar 07",
  "time": "09:00 am",
  "Latitude": 47.6016,
  "Longitude": -122.3135
}, {
  "id": 130639,
  "city": "Seattle",
  "address1": "1404 E Yesler Way",
  "region": "WA",
  "postal": "98122",
  "title": "Weekend of Action for Bernie in Seattle!",
  "attendee_count": 4,
  "type": "Canvass_M",
  "link": "https://events.berniesanders.com/event/233050/",
  "date": "2020-03-07",
  "day": "Sat Mar 07",
  "time": "06:00 pm",
  "Latitude": 47.6016,
  "Longitude": -122.314
}, {
  "id": 130640,
  "city": "Seattle",
  "address1": "1404 E Yesler Way",
  "region": "WA",
  "postal": "98122",
  "title": "Weekend of Action for Bernie in Seattle!",
  "attendee_count": 17,
  "type": "Canvass_M",
  "link": "https://events.berniesanders.com/event/233050/",
  "date": "2020-03-08",
  "day": "Sun Mar 08",
  "time": "12:00 pm",
  "Latitude": 47.6019,
  "Longitude": -122.314
}, {
  "id": 130641,
  "city": "Seattle",
  "address1": "1404 E Yesler Way",
  "region": "WA",
  "postal": "98122",
  "title": "Weekend of Action for Bernie in Seattle!",
  "attendee_count": 9,
  "type": "Canvass_M",
  "link": "https://events.berniesanders.com/event/233050/",
  "date": "2020-03-08",
  "day": "Sun Mar 08",
  "time": "03:00 pm",
  "Latitude": 47.6016,
  "Longitude": -122.3139
}, {
  "id": 130643,
  "city": "Seattle",
  "address1": "1404 E Yesler Way",
  "region": "WA",
  "postal": "98122",
  "title": "Weekend of Action for Bernie in Seattle!",
  "attendee_count": 27,
  "type": "Canvass_M",
  "link": "https://www.mobilize.us/sanderswa/event/233050/",
  "date": "2020-03-07",
  "day": "Sat Mar 07",
  "time": "12:00 pm",
  "Latitude": 47.6016,
  "Longitude": -122.3137
}, {
  "id": 159696,
  "city": "Seattle",
  "address1": "1404 E Yesler Way",
  "region": "WA",
  "postal": "98122",
  "title": "Get out the VOTE for Bernie in Seattle",
  "attendee_count": 0,
  "type": "Canvass_M",
  "link": "https://www.mobilize.us/sanderswa/event/258063/",
  "date": "2020-03-09",
  "day": "Mon Mar 09",
  "time": "09:00 am",
  "Latitude": 47.6022,
  "Longitude": -122.3138
}, {
  "id": 159697,
  "city": "Seattle",
  "address1": "1404 E Yesler Way",
  "region": "WA",
  "postal": "98122",
  "title": "Get out the VOTE for Bernie in Seattle",
  "attendee_count": 0,
  "type": "Canvass_M",
  "link": "https://www.mobilize.us/sanderswa/event/258063/",
  "date": "2020-03-10",
  "day": "Tue Mar 10",
  "time": "12:00 pm",
  "Latitude": 47.6018,
  "Longitude": -122.3138
}, {
  "id": 159698,
  "city": "Seattle",
  "address1": "1404 E Yesler Way",
  "region": "WA",
  "postal": "98122",
  "title": "Get out the VOTE for Bernie in Seattle",
  "attendee_count": 0,
  "type": "Canvass_M",
  "link": "https://www.mobilize.us/sanderswa/event/258063/",
  "date": "2020-03-10",
  "day": "Tue Mar 10",
  "time": "06:00 pm",
  "Latitude": 47.6016,
  "Longitude": -122.3139
}, {
  "id": 159699,
  "city": "Seattle",
  "address1": "1404 E Yesler Way",
  "region": "WA",
  "postal": "98122",
  "title": "Get out the VOTE for Bernie in Seattle",
  "attendee_count": 0,
  "type": "Canvass_M",
  "link": "https://events.berniesanders.com/event/258063/",
  "date": "2020-03-10",
  "day": "Tue Mar 10",
  "time": "03:00 pm",
  "Latitude": 47.6022,
  "Longitude": -122.3138
}, {
  "id": 159700,
  "city": "Seattle",
  "address1": "1404 E Yesler Way",
  "region": "WA",
  "postal": "98122",
  "title": "Get out the VOTE for Bernie in Seattle",
  "attendee_count": 0,
  "type": "Canvass_M",
  "link": "https://www.mobilize.us/sanderswa/event/258063/",
  "date": "2020-03-09",
  "day": "Mon Mar 09",
  "time": "12:00 pm",
  "Latitude": 47.602,
  "Longitude": -122.3135
}, {
  "id": 159702,
  "city": "Seattle",
  "address1": "1404 E Yesler Way",
  "region": "WA",
  "postal": "98122",
  "title": "Get out the VOTE for Bernie in Seattle",
  "attendee_count": 0,
  "type": "Canvass_M",
  "link": "https://www.mobilize.us/sanderswa/event/258063/",
  "date": "2020-03-10",
  "day": "Tue Mar 10",
  "time": "09:00 am",
  "Latitude": 47.6016,
  "Longitude": -122.3135
}, {
  "id": 159704,
  "city": "Seattle",
  "address1": "1404 E Yesler Way",
  "region": "WA",
  "postal": "98122",
  "title": "Get out the VOTE for Bernie in Seattle",
  "attendee_count": 0,
  "type": "Canvass_M",
  "link": "https://www.mobilize.us/sanderswa/event/258063/",
  "date": "2020-03-09",
  "day": "Mon Mar 09",
  "time": "06:00 pm",
  "Latitude": 47.6016,
  "Longitude": -122.3137
}, {
  "id": 159707,
  "city": "Seattle",
  "address1": "1404 E Yesler Way",
  "region": "WA",
  "postal": "98122",
  "title": "Get out the VOTE for Bernie in Seattle",
  "attendee_count": 0,
  "type": "Canvass_M",
  "link": "https://events.berniesanders.com/event/258063/",
  "date": "2020-03-09",
  "day": "Mon Mar 09",
  "time": "03:00 pm",
  "Latitude": 47.602,
  "Longitude": -122.3134
}, {
  "id": 159124,
  "city": "Seattle",
  "address1": "2001 E Union St",
  "region": "WA",
  "postal": "98122",
  "title": "Knock Doors for Bernie in Central District, Seattle",
  "attendee_count": 0,
  "type": "Canvass_M",
  "link": "https://www.mobilize.us/sanderswa/event/257443/",
  "date": "2020-03-10",
  "day": "Tue Mar 10",
  "time": "11:00 am",
  "Latitude": 47.6125,
  "Longitude": -122.3059
}, {
  "id": 159127,
  "city": "Seattle",
  "address1": "915 16th Ave",
  "region": "WA",
  "postal": "98122",
  "title": "Knock Doors for Bernie in Central District, Seattle!",
  "attendee_count": 4,
  "type": "Canvass_M",
  "link": "https://www.mobilize.us/sanderswa/event/257435/",
  "date": "2020-03-08",
  "day": "Sun Mar 08",
  "time": "12:00 pm",
  "Latitude": 47.6106,
  "Longitude": -122.3121
}, {
  "id": 159128,
  "city": "Seattle",
  "address1": "915 16th Ave",
  "region": "WA",
  "postal": "98122",
  "title": "Knock Doors for Bernie in Central District, Seattle!",
  "attendee_count": 3,
  "type": "Canvass_M",
  "link": "https://www.mobilize.us/sanderswa/event/257435/",
  "date": "2020-03-08",
  "day": "Sun Mar 08",
  "time": "02:00 pm",
  "Latitude": 47.6109,
  "Longitude": -122.3117
}, {
  "id": 159129,
  "city": "Seattle",
  "address1": "915 16th Ave",
  "region": "WA",
  "postal": "98122",
  "title": "Knock Doors for Bernie in Central District, Seattle!",
  "attendee_count": 3,
  "type": "Canvass_M",
  "link": "https://www.mobilize.us/sanderswa/event/257435/",
  "date": "2020-03-08",
  "day": "Sun Mar 08",
  "time": "04:30 pm",
  "Latitude": 47.6112,
  "Longitude": -122.312
}, {
  "id": 159130,
  "city": "Seattle",
  "address1": "915 16th Ave",
  "region": "WA",
  "postal": "98122",
  "title": "Knock Doors for Bernie in Central District, Seattle!",
  "attendee_count": 2,
  "type": "Canvass_M",
  "link": "https://events.berniesanders.com/event/257435/",
  "date": "2020-03-09",
  "day": "Mon Mar 09",
  "time": "05:30 pm",
  "Latitude": 47.6111,
  "Longitude": -122.3116
}, {
  "id": 159131,
  "city": "Seattle",
  "address1": "915 16th Ave",
  "region": "WA",
  "postal": "98122",
  "title": "Knock Doors for Bernie in Central District, Seattle!",
  "attendee_count": 0,
  "type": "Canvass_M",
  "link": "https://www.mobilize.us/sanderswa/event/257435/",
  "date": "2020-03-09",
  "day": "Mon Mar 09",
  "time": "11:00 am",
  "Latitude": 47.6111,
  "Longitude": -122.3121
}, {
  "id": 159132,
  "city": "Seattle",
  "address1": "915 16th Ave",
  "region": "WA",
  "postal": "98122",
  "title": "Knock Doors for Bernie in Central District, Seattle!",
  "attendee_count": 1,
  "type": "Canvass_M",
  "link": "https://www.mobilize.us/sanderswa/event/257435/",
  "date": "2020-03-09",
  "day": "Mon Mar 09",
  "time": "02:00 pm",
  "Latitude": 47.6107,
  "Longitude": -122.3121
}, {
  "id": 159125,
  "city": "Seattle",
  "address1": "2001 E Union St",
  "region": "WA",
  "postal": "98122",
  "title": "Knock Doors for Bernie in Central District, Seattle",
  "attendee_count": 0,
  "type": "Canvass_M",
  "link": "https://www.mobilize.us/sanderswa/event/257443/",
  "date": "2020-03-10",
  "day": "Tue Mar 10",
  "time": "02:00 pm",
  "Latitude": 47.6125,
  "Longitude": -122.306
}, {
  "id": 159126,
  "city": "Seattle",
  "address1": "2001 E Union St",
  "region": "WA",
  "postal": "98122",
  "title": "Knock Doors for Bernie in Central District, Seattle",
  "attendee_count": 0,
  "type": "Canvass_M",
  "link": "https://www.mobilize.us/sanderswa/event/257443/",
  "date": "2020-03-10",
  "day": "Tue Mar 10",
  "time": "05:00 pm",
  "Latitude": 47.6128,
  "Longitude": -122.3056
}, {
  "id": 154935,
  "city": "Seattle",
  "address1": "131 Broadway E",
  "region": "WA",
  "postal": "98102",
  "title": "Knock Doors with a Bernie Victory Captain in Capitol Hill, Seattle!",
  "attendee_count": 10,
  "type": "Canvass_M",
  "link": "https://www.mobilize.us/sanderswa/event/254880/",
  "date": "2020-03-08",
  "day": "Sun Mar 08",
  "time": "01:00 pm",
  "Latitude": 47.6195,
  "Longitude": -122.3211
}, {
  "id": 154937,
  "city": "Seattle",
  "address1": "131 Broadway E",
  "region": "WA",
  "postal": "98102",
  "title": "Knock Doors with a Bernie Victory Captain in Capitol Hill, Seattle!",
  "attendee_count": 6,
  "type": "Canvass_M",
  "link": "https://www.mobilize.us/sanderswa/event/254880/",
  "date": "2020-03-07",
  "day": "Sat Mar 07",
  "time": "04:00 pm",
  "Latitude": 47.6195,
  "Longitude": -122.321
}, {
  "id": 154938,
  "city": "Seattle",
  "address1": "131 Broadway E",
  "region": "WA",
  "postal": "98102",
  "title": "Knock Doors with a Bernie Victory Captain in Capitol Hill, Seattle!",
  "attendee_count": 3,
  "type": "Canvass_M",
  "link": "https://events.berniesanders.com/event/254880/",
  "date": "2020-03-08",
  "day": "Sun Mar 08",
  "time": "04:00 pm",
  "Latitude": 47.6195,
  "Longitude": -122.321
}, {
  "id": 154939,
  "city": "Seattle",
  "address1": "131 Broadway E",
  "region": "WA",
  "postal": "98102",
  "title": "Knock Doors with a Bernie Victory Captain in Capitol Hill, Seattle!",
  "attendee_count": 5,
  "type": "Canvass_M",
  "link": "https://events.berniesanders.com/event/254880/",
  "date": "2020-03-07",
  "day": "Sat Mar 07",
  "time": "10:00 am",
  "Latitude": 47.6197,
  "Longitude": -122.3215
}, {
  "id": 154940,
  "city": "Seattle",
  "address1": "131 Broadway E",
  "region": "WA",
  "postal": "98102",
  "title": "Knock Doors with a Bernie Victory Captain in Capitol Hill, Seattle!",
  "attendee_count": 2,
  "type": "Canvass_M",
  "link": "https://events.berniesanders.com/event/254880/",
  "date": "2020-03-08",
  "day": "Sun Mar 08",
  "time": "10:00 am",
  "Latitude": 47.6195,
  "Longitude": -122.3216
}, {
  "id": 154941,
  "city": "Seattle",
  "address1": "131 Broadway E",
  "region": "WA",
  "postal": "98102",
  "title": "Knock Doors with a Bernie Victory Captain in Capitol Hill, Seattle!",
  "attendee_count": 14,
  "type": "Canvass_M",
  "link": "https://www.mobilize.us/sanderswa/event/254880/",
  "date": "2020-03-07",
  "day": "Sat Mar 07",
  "time": "01:00 pm",
  "Latitude": 47.6201,
  "Longitude": -122.3211
}, {
  "id": 144385,
  "city": "Seattle",
  "address1": "305 Harrison St",
  "region": "WA",
  "postal": "98109",
  "title": "Get Out The Vote Weekend! Knock Doors with a Bernie Victory Captain in Seattle, WA!",
  "attendee_count": 12,
  "type": "Canvass_M",
  "link": "https://events.berniesanders.com/event/245409/",
  "date": "2020-03-07",
  "day": "Sat Mar 07",
  "time": "12:00 pm",
  "Latitude": 47.6222,
  "Longitude": -122.3517
}, {
  "id": 144394,
  "city": "Seattle",
  "address1": "305 Harrison St",
  "region": "WA",
  "postal": "98109",
  "title": "Get Out The Vote Weekend! Knock Doors with a Bernie Victory Captain in Seattle, WA!",
  "attendee_count": 5,
  "type": "Canvass_M",
  "link": "https://www.mobilize.us/sanderswa/event/245409/",
  "date": "2020-03-07",
  "day": "Sat Mar 07",
  "time": "03:00 pm",
  "Latitude": 47.6221,
  "Longitude": -122.3515
}, {
  "id": 144403,
  "city": "Seattle",
  "address1": "305 Harrison St",
  "region": "WA",
  "postal": "98109",
  "title": "Get Out The Vote Weekend! Knock Doors with a Bernie Victory Captain in Seattle, WA!",
  "attendee_count": 4,
  "type": "Canvass_M",
  "link": "https://www.mobilize.us/sanderswa/event/245409/",
  "date": "2020-03-07",
  "day": "Sat Mar 07",
  "time": "06:00 pm",
  "Latitude": 47.6221,
  "Longitude": -122.352
}, {
  "id": 144405,
  "city": "Seattle",
  "address1": "305 Harrison St",
  "region": "WA",
  "postal": "98109",
  "title": "Get Out The Vote Weekend! Knock Doors with a Bernie Victory Captain in Seattle, WA!",
  "attendee_count": 7,
  "type": "Canvass_M",
  "link": "https://www.mobilize.us/sanderswa/event/245409/",
  "date": "2020-03-07",
  "day": "Sat Mar 07",
  "time": "09:00 am",
  "Latitude": 47.6221,
  "Longitude": -122.3516
}, {
  "id": 146100,
  "city": "Seattle",
  "address1": "723 N 35th St",
  "region": "WA",
  "postal": "98103",
  "title": "Knock Doors with a Bernie Victory Captain in Fremont, Seattle!",
  "attendee_count": 24,
  "max_attendees": 50,
  "type": "Canvass_M",
  "link": "https://www.mobilize.us/sanderswa/event/247302/",
  "date": "2020-03-07",
  "day": "Sat Mar 07",
  "time": "12:00 pm",
  "Latitude": 47.6505,
  "Longitude": -122.3486
}, {
  "id": 146104,
  "city": "Seattle",
  "address1": "723 N 35th St",
  "region": "WA",
  "postal": "98103",
  "title": "Knock Doors with a Bernie Victory Captain in Fremont, Seattle!",
  "attendee_count": 12,
  "max_attendees": 50,
  "type": "Canvass_M",
  "link": "https://events.berniesanders.com/event/247302/",
  "date": "2020-03-07",
  "day": "Sat Mar 07",
  "time": "03:00 pm",
  "Latitude": 47.6499,
  "Longitude": -122.3489
}, {
  "id": 146114,
  "city": "Seattle",
  "address1": "723 N 35th St",
  "region": "WA",
  "postal": "98103",
  "title": "Knock Doors with a Bernie Victory Captain in Fremont, Seattle!",
  "attendee_count": 2,
  "max_attendees": 50,
  "type": "Canvass_M",
  "link": "https://www.mobilize.us/sanderswa/event/247302/",
  "date": "2020-03-07",
  "day": "Sat Mar 07",
  "time": "06:00 pm",
  "Latitude": 47.65,
  "Longitude": -122.3487
}, {
  "id": 153990,
  "city": "Seattle",
  "address1": "723 N 35th St",
  "region": "WA",
  "postal": "98103",
  "title": "Knock Doors with a Bernie Victory Captain in Fremont, Seattle!",
  "attendee_count": 8,
  "max_attendees": 50,
  "type": "Canvass_M",
  "link": "https://www.mobilize.us/sanderswa/event/247302/",
  "date": "2020-03-08",
  "day": "Sun Mar 08",
  "time": "03:00 pm",
  "Latitude": 47.6502,
  "Longitude": -122.3487
}, {
  "id": 153991,
  "city": "Seattle",
  "address1": "723 N 35th St",
  "region": "WA",
  "postal": "98103",
  "title": "Knock Doors with a Bernie Victory Captain in Fremont, Seattle!",
  "attendee_count": 10,
  "max_attendees": 50,
  "type": "Canvass_M",
  "link": "https://events.berniesanders.com/event/247302/",
  "date": "2020-03-08",
  "day": "Sun Mar 08",
  "time": "12:00 pm",
  "Latitude": 47.65,
  "Longitude": -122.3487
}, {
  "id": 154001,
  "city": "Seattle",
  "address1": "723 N 35th St",
  "region": "WA",
  "postal": "98103",
  "title": "Knock Doors with a Bernie Victory Captain in Fremont, Seattle!",
  "attendee_count": 4,
  "max_attendees": 50,
  "type": "Canvass_M",
  "link": "https://www.mobilize.us/sanderswa/event/247302/",
  "date": "2020-03-08",
  "day": "Sun Mar 08",
  "time": "06:00 pm",
  "Latitude": 47.6502,
  "Longitude": -122.3486
}, {
  "id": 158427,
  "city": "Seattle",
  "address1": "723 N 35th St",
  "region": "WA",
  "postal": "98103",
  "title": "Knock Doors with a Bernie Victory Captain in Fremont, Seattle!",
  "attendee_count": 4,
  "max_attendees": 50,
  "type": "Canvass_M",
  "link": "https://events.berniesanders.com/event/247302/",
  "date": "2020-03-07",
  "day": "Sat Mar 07",
  "time": "09:30 am",
  "Latitude": 47.6505,
  "Longitude": -122.3486
}, {
  "id": 158428,
  "city": "Seattle",
  "address1": "723 N 35th St",
  "region": "WA",
  "postal": "98103",
  "title": "Knock Doors with a Bernie Victory Captain in Fremont, Seattle!",
  "attendee_count": 5,
  "max_attendees": 50,
  "type": "Canvass_M",
  "link": "https://www.mobilize.us/sanderswa/event/247302/",
  "date": "2020-03-08",
  "day": "Sun Mar 08",
  "time": "09:30 am",
  "Latitude": 47.6499,
  "Longitude": -122.3489
}, {
  "id": 155611,
  "city": "Seattle",
  "address1": "915 N 36th St",
  "region": "WA",
  "postal": "98103",
  "title": "Knock Doors for Bernie in Seattle, WA!",
  "attendee_count": 1,
  "max_attendees": 15,
  "type": "Canvass_M",
  "link": "https://www.mobilize.us/sanderswa/event/255389/",
  "date": "2020-03-08",
  "day": "Sun Mar 08",
  "time": "11:30 am",
  "Latitude": 47.6507,
  "Longitude": -122.3465
}, {
  "id": 155490,
  "city": "Seattle",
  "address1": "4745 9th Ave NE",
  "region": "WA",
  "postal": "98105",
  "title": "Knock Doors with a Bernie Victory Captain in Seattle, WA!",
  "attendee_count": 0,
  "type": "Canvass_M",
  "link": "https://www.mobilize.us/sanderswa/event/255269/",
  "date": "2020-03-09",
  "day": "Mon Mar 09",
  "time": "12:00 pm",
  "Latitude": 47.6645,
  "Longitude": -122.3191
}, {
  "id": 155497,
  "city": "Seattle",
  "address1": "4745 9th Ave NE",
  "region": "WA",
  "postal": "98105",
  "title": "Knock Doors with a Bernie Victory Captain in Seattle, WA!",
  "attendee_count": 0,
  "type": "Canvass_M",
  "link": "https://www.mobilize.us/sanderswa/event/255269/",
  "date": "2020-03-09",
  "day": "Mon Mar 09",
  "time": "09:00 am",
  "Latitude": 47.6644,
  "Longitude": -122.3195
}, {
  "id": 155499,
  "city": "Seattle",
  "address1": "4745 9th Ave NE",
  "region": "WA",
  "postal": "98105",
  "title": "Knock Doors with a Bernie Victory Captain in Seattle, WA!",
  "attendee_count": 1,
  "type": "Canvass_M",
  "link": "https://www.mobilize.us/sanderswa/event/255269/",
  "date": "2020-03-09",
  "day": "Mon Mar 09",
  "time": "03:00 pm",
  "Latitude": 47.6641,
  "Longitude": -122.3192
}, {
  "id": 155482,
  "city": "Seattle",
  "address1": "923 NW 54th St",
  "region": "WA",
  "postal": "98107",
  "title": "Knock Doors with a Bernie Victory Captain in Seattle, WA!",
  "attendee_count": 4,
  "type": "Canvass_M",
  "link": "https://www.mobilize.us/sanderswa/event/255274/",
  "date": "2020-03-07",
  "day": "Sat Mar 07",
  "time": "09:00 am",
  "Latitude": 47.6676,
  "Longitude": -122.3694
}, {
  "id": 155492,
  "city": "Seattle",
  "address1": "923 NW 54th St",
  "region": "WA",
  "postal": "98107",
  "title": "Knock Doors with a Bernie Victory Captain in Seattle, WA!",
  "attendee_count": 2,
  "type": "Canvass_M",
  "link": "https://www.mobilize.us/sanderswa/event/255274/",
  "date": "2020-03-08",
  "day": "Sun Mar 08",
  "time": "09:00 am",
  "Latitude": 47.6672,
  "Longitude": -122.3694
}, {
  "id": 153426,
  "city": "Seattle",
  "address1": "6031 1st Ave NW",
  "region": "WA",
  "postal": "98107",
  "title": "Knock Doors for Bernie in Seattle!",
  "attendee_count": 3,
  "max_attendees": 25,
  "type": "Canvass_M",
  "link": "https://www.mobilize.us/sanderswa/event/252764/",
  "date": "2020-03-08",
  "day": "Sun Mar 08",
  "time": "11:00 am",
  "Latitude": 47.6735,
  "Longitude": -122.3574
}, {
  "id": 153427,
  "city": "Seattle",
  "address1": "6031 1st Ave NW",
  "region": "WA",
  "postal": "98107",
  "title": "Knock Doors for Bernie in Seattle!",
  "attendee_count": 2,
  "max_attendees": 25,
  "type": "Canvass_M",
  "link": "https://www.mobilize.us/sanderswa/event/252764/",
  "date": "2020-03-08",
  "day": "Sun Mar 08",
  "time": "05:00 pm",
  "Latitude": 47.6735,
  "Longitude": -122.357
}, {
  "id": 153431,
  "city": "Seattle",
  "address1": "6031 1st Ave NW",
  "region": "WA",
  "postal": "98107",
  "title": "Knock Doors for Bernie in Seattle!",
  "attendee_count": 2,
  "max_attendees": 25,
  "type": "Canvass_M",
  "link": "https://www.mobilize.us/sanderswa/event/252764/",
  "date": "2020-03-08",
  "day": "Sun Mar 08",
  "time": "02:00 pm",
  "Latitude": 47.6731,
  "Longitude": -122.3572
}, {
  "id": 159444,
  "city": "Seattle",
  "address1": "11051 34th Ave NE",
  "region": "WA",
  "postal": "98125",
  "title": "Knock Doors with a Bernie Victory Captain in Lake City, Seattle, WA",
  "attendee_count": 2,
  "type": "Canvass_M",
  "link": "https://www.mobilize.us/sanderswa/event/257819/",
  "date": "2020-03-08",
  "day": "Sun Mar 08",
  "time": "10:30 am",
  "Latitude": 47.7103,
  "Longitude": -122.2933
}, {
  "id": 158903,
  "city": "Lake Forest Park",
  "address1": "3524 NE 197th St",
  "region": "WA",
  "postal": "98155",
  "title": "Knock Doors for Bernie in Lake Forest Park, WA!",
  "attendee_count": 1,
  "max_attendees": 16,
  "type": "Canvass_M",
  "link": "https://www.mobilize.us/sanderswa/event/257225/",
  "date": "2020-03-08",
  "day": "Sun Mar 08",
  "time": "12:00 pm",
  "Latitude": 47.7718,
  "Longitude": -122.2909
}, {
  "id": 130609,
  "city": "Bothell",
  "address1": "21911 43rd Dr SE",
  "region": "WA",
  "postal": "98021",
  "title": "Knock Doors with a Bernie Victory Captain in Bothell, WA",
  "attendee_count": 10,
  "max_attendees": 40,
  "type": "Canvass_M",
  "link": "https://www.mobilize.us/sanderswa/event/227944/",
  "date": "2020-03-07",
  "day": "Sat Mar 07",
  "time": "10:30 am",
  "Latitude": 47.7988,
  "Longitude": -122.1746
}, {
  "id": 130650,
  "city": "Bothell",
  "address1": "21911 43rd Dr SE",
  "region": "WA",
  "postal": "98021",
  "title": "Knock Doors with a Bernie Victory Captain in Bothell, WA",
  "attendee_count": 3,
  "max_attendees": 40,
  "type": "Canvass_M",
  "link": "https://events.berniesanders.com/event/227975/",
  "date": "2020-03-08",
  "day": "Sun Mar 08",
  "time": "10:30 am",
  "Latitude": 47.7991,
  "Longitude": -122.1742
}, {
  "id": 158578,
  "city": "Seattle",
  "address1": "7148 Martin Luther King Jr Way S",
  "region": "WA",
  "postal": "98118",
  "title": "Bernie 2020 Community Canvass in Othello, Seattle",
  "attendee_count": 1,
  "type": "Community-Canvass_M",
  "link": "https://www.mobilize.us/sanderswa/event/257112/",
  "date": "2020-03-09",
  "day": "Mon Mar 09",
  "time": "03:30 pm",
  "Latitude": 47.5375,
  "Longitude": -122.2813
}, {
  "id": 158582,
  "city": "Seattle",
  "address1": "2524 16th Ave S",
  "region": "WA",
  "postal": "98144",
  "title": "Team Bernie at Seattle Womxn's March!",
  "attendee_count": 3,
  "type": "Community-Canvass_M",
  "link": "https://www.mobilize.us/sanderswa/event/257195/",
  "date": "2020-03-08",
  "day": "Sun Mar 08",
  "time": "12:30 pm",
  "Latitude": 47.5804,
  "Longitude": -122.3111
}, {
  "id": 130986,
  "city": "Seattle",
  "address1": "1404 E Yesler Way",
  "region": "WA",
  "postal": "98122",
  "title": "Bernie 2020 Community Canvass in the Central Area",
  "attendee_count": 9,
  "max_attendees": 61,
  "type": "Community-Canvass_M",
  "link": "https://www.mobilize.us/sanderswa/event/233221/",
  "date": "2020-03-09",
  "day": "Mon Mar 09",
  "time": "06:00 pm",
  "Latitude": 47.6017,
  "Longitude": -122.3139
}, {
  "id": 155965,
  "city": "Seattle",
  "address1": "1701 Broadway",
  "region": "WA",
  "postal": "98122",
  "title": "Seattle Central for Bernie Campus Canvass",
  "attendee_count": 5,
  "type": "Community-Canvass_M",
  "link": "https://www.mobilize.us/sanderswa/event/255659/",
  "date": "2020-03-05",
  "day": "Thu Mar 05",
  "time": "02:00 pm",
  "Latitude": 47.6161,
  "Longitude": -122.3214
}, {
  "id": 155967,
  "city": "Seattle",
  "address1": "1701 Broadway",
  "region": "WA",
  "postal": "98122",
  "title": "Seattle Central for Bernie Campus Canvass",
  "attendee_count": 1,
  "type": "Community-Canvass_M",
  "link": "https://www.mobilize.us/sanderswa/event/255659/",
  "date": "2020-03-05",
  "day": "Thu Mar 05",
  "time": "09:00 am",
  "Latitude": 47.6163,
  "Longitude": -122.3216
}, {
  "id": 155968,
  "city": "Seattle",
  "address1": "1701 Broadway",
  "region": "WA",
  "postal": "98122",
  "title": "Seattle Central for Bernie Campus Canvass",
  "attendee_count": 2,
  "type": "Community-Canvass_M",
  "link": "https://www.mobilize.us/sanderswa/event/255659/",
  "date": "2020-03-06",
  "day": "Fri Mar 06",
  "time": "09:00 am",
  "Latitude": 47.616,
  "Longitude": -122.3212
}, {
  "id": 150295,
  "city": "Seattle",
  "address1": "1635 11th Ave",
  "region": "WA",
  "postal": "98122",
  "title": "Get Out The Vote for Bernie in Capitol Hill, Seattle",
  "attendee_count": 9,
  "type": "Community-Canvass_M",
  "link": "https://events.berniesanders.com/event/248732/",
  "date": "2020-03-07",
  "day": "Sat Mar 07",
  "time": "10:00 am",
  "Latitude": 47.6172,
  "Longitude": -122.319
}, {
  "id": 130977,
  "city": "Seattle",
  "address1": "2101 N Northlake Way",
  "region": "WA",
  "postal": "98103",
  "title": "Bernie 2020 Community Canvass in Wallingford",
  "attendee_count": 40,
  "max_attendees": 61,
  "type": "Community-Canvass_M",
  "link": "https://www.mobilize.us/sanderswa/event/233214/",
  "date": "2020-03-08",
  "day": "Sun Mar 08",
  "time": "11:00 am",
  "Latitude": 47.647,
  "Longitude": -122.3385
}, {
  "id": 156075,
  "city": "Seattle",
  "address1": "15th Avenue NE & NE 42nd Street",
  "region": "WA",
  "postal": "98105",
  "title": "Get Out The Vote for Bernie in the U District, Seattle!",
  "attendee_count": 3,
  "type": "Community-Canvass_M",
  "link": "https://www.mobilize.us/sanderswa/event/255643/",
  "date": "2020-03-07",
  "day": "Sat Mar 07",
  "time": "10:00 am",
  "Latitude": 47.7139,
  "Longitude": -122.3125
}, {
  "id": 125171,
  "city": "Seattle",
  "address1": "5000 University Way NE",
  "region": "WA",
  "postal": "98105",
  "title": "Bernie 2020 Community Canvass in U District, Seattle",
  "attendee_count": 22,
  "type": "Community-Canvass_M",
  "link": "https://www.mobilize.us/sanderswa/event/225640/",
  "date": "2020-03-07",
  "day": "Sat Mar 07",
  "time": "11:00 am",
  "Latitude": 47.6652,
  "Longitude": -122.3131
}, {
  "id": 159363,
  "city": "Seattle",
  "address1": "5301 Roosevelt Way NE",
  "region": "WA",
  "postal": "98105",
  "title": "Bernie 2020 Community Canvass in Seattle, WA",
  "attendee_count": 3,
  "type": "Community-Canvass_M",
  "link": "https://www.mobilize.us/sanderswa/event/257670/",
  "date": "2020-03-09",
  "day": "Mon Mar 09",
  "time": "03:00 pm",
  "Latitude": 47.667,
  "Longitude": -122.3179
}, {
  "id": 130948,
  "city": "Seattle",
  "address1": "9053 1st Ave NW",
  "region": "WA",
  "postal": "98117",
  "title": "Bernie 2020 Community Canvass in Greenwood",
  "attendee_count": 14,
  "max_attendees": 61,
  "type": "Community-Canvass_M",
  "link": "https://www.mobilize.us/sanderswa/event/233209/",
  "date": "2020-03-07",
  "day": "Sat Mar 07",
  "time": "11:00 am",
  "Latitude": 47.6958,
  "Longitude": -122.3586
}]
